[
  {
    "name": "JOAO CARREIRA",
    "type": "quilombola",
    "city": "ANDRADINA",
    "diretoria": "ANDRADINA",
    "distance": 16.1,
    "lat": -21.0112896,
    "lng": -51.46931458,
    "de_lat": -20.896505,
    "de_lng": -51.3742765,
    "endereco_escola": "PRIMAVERA, SN, CAMBIRA, CEP: 16900970",
    "endereco_diretoria": "10a Rua R Regente Feijo, 2160, Vila Mineira, Andradina, SP, CEP: 16901908",
    "diretoria_original": "Andradina"
  },
  {
    "name": "ASSENTAMENTO ZUMBI DOS PALMARES",
    "type": "quilombola",
    "city": "IARAS",
    "diretoria": "AVARE",
    "distance": 44.17,
    "lat": -22.75668907,
    "lng": -49.13655853,
    "de_lat": -23.0998,
    "de_lng": -48.9267,
    "endereco_escola": "AREA RURAL, AREA RURAL DE IARAS, CEP: 18779899",
    "endereco_diretoria": "Avenida Pref. Misael Eufrásio Leal, 857 - Vila Aires, Avaré - SP, 18705-050",
    "diretoria_original": "Avare"
  },
  {
    "name": "ALDEIA NIMUENDAJU",
    "type": "indigena",
    "city": "AVAI",
    "diretoria": "BAURU",
    "distance": 29.4,
    "lat": -22.29116058,
    "lng": -49.37730026,
    "de_lat": -22.3233112,
    "de_lng": -49.0940288,
    "endereco_escola": "POSTO INDIGENA NIMUENDAJU, SN, ALDEIA NIMUENDAJU, CEP: 16680000",
    "endereco_diretoria": "Rua Campos Salles, 9 - 43, Vila Falcao, Bauru, SP, CEP: 17050000",
    "diretoria_original": "Bauru"
  },
  {
    "name": "ALDEIA EKERUA",
    "type": "indigena",
    "city": "AVAI",
    "diretoria": "BAURU",
    "distance": 29.24,
    "lat": -22.2747097,
    "lng": -49.37297058,
    "de_lat": -22.3233112,
    "de_lng": -49.0940288,
    "endereco_escola": "ALDEIA EKERUA, SN, ALDEIA EKERUA, CEP: 16680000",
    "endereco_diretoria": "Rua Campos Salles, 9 - 43, Vila Falcao, Bauru, SP, CEP: 17050000",
    "diretoria_original": "Bauru"
  },
  {
    "name": "ALDEIA TEREGUA",
    "type": "indigena",
    "city": "AVAI",
    "diretoria": "BAURU",
    "distance": 34.86,
    "lat": -22.16006088,
    "lng": -49.38312149,
    "de_lat": -22.3233112,
    "de_lng": -49.0940288,
    "endereco_escola": "ALDEIA TEREGUA, SN, LARANJEIRAS, CEP: 16680000",
    "endereco_diretoria": "Rua Campos Salles, 9 - 43, Vila Falcao, Bauru, SP, CEP: 17050000",
    "diretoria_original": "Bauru"
  },
  {
    "name": "ALDEIA KOPENOTI",
    "type": "indigena",
    "city": "AVAI",
    "diretoria": "BAURU",
    "distance": 286.65,
    "lat": -22.264515,
    "lng": -49.35027069,
    "de_lat": -22.3233112,
    "de_lng": -49.0940288,
    "endereco_escola": "Posto Indigena Kopenoti, S/N - Aldeia Kopenoti, Avaí - SP, 16680-000",
    "endereco_diretoria": "Rua Campos Salles, 9 - 43, Vila Falcao, Bauru, SP, CEP: 17050000",
    "diretoria_original": "Bauru"
  },
  {
    "name": "ALDEIA RENASCER",
    "type": "indigena",
    "city": "UBATUBA",
    "diretoria": "CARAGUATATUBA",
    "distance": 29.12,
    "lat": -23.47613907,
    "lng": -45.19160843,
    "de_lat": -23.6204,
    "de_lng": -45.4132,
    "endereco_escola": "CORCOVADO, SN, CORCOVADO, CEP: 11682520",
    "endereco_diretoria": "Avenida Alagoas, 539, Indaia, Caraguatatuba, SP, CEP: 11665159",
    "diretoria_original": "Caraguatatuba"
  },
  {
    "name": "ALDEIA BOA VISTA",
    "type": "indigena",
    "city": "UBATUBA",
    "diretoria": "CARAGUATATUBA",
    "distance": 54.17,
    "lat": -23.37615967,
    "lng": -44.96944046,
    "de_lat": -23.6204,
    "de_lng": -45.4132,
    "endereco_escola": "PROMIRIM, PROMIRIM, CEP: 11697404",
    "endereco_diretoria": "Avenida Alagoas, 539, Indaia, Caraguatatuba, SP, CEP: 11665160",
    "diretoria_original": "Caraguatatuba"
  },
  {
    "name": "EE IDALICIO MENDES  LIMA O SR BAIANO DA AGROVILA I",
    "type": "quilombola",
    "city": "ITAPEVA",
    "diretoria": "ITAPEVA",
    "distance": 27.43,
    "lat": -24.1126194,
    "lng": -49.11140823,
    "de_lat": -23.9849105,
    "de_lng": -48.8803886,
    "endereco_escola": "PIRITUBA, SN, 13 DE MAIO, CEP: 18400970",
    "endereco_diretoria": "Rua Rtorquato Raimundo, 96, Jardim Ferrari, Itapeva, SP, CEP: 18405010",
    "diretoria_original": "Itapeva"
  },
  {
    "name": "TXONDARO TEKOA  MBAE",
    "type": "indigena",
    "city": "BARAO DE ANTONINA",
    "diretoria": "ITARARE",
    "distance": 60.64,
    "lat": -23.61064911,
    "lng": -49.58242035,
    "de_lat": -24.1083,
    "de_lng": -49.3342,
    "endereco_escola": "VICINAL, BAIRRO DOS VITOR, CEP: 18490000",
    "endereco_diretoria": "Rua Dr Rubens Lobo Ribeiro, 310, Cruzeiro, Itarare, SP, CEP: 18460540",
    "diretoria_original": "Itarare"
  },
  {
    "name": "ALDEIA KARUGWA",
    "type": "indigena",
    "city": "BARAO DE ANTONINA",
    "diretoria": "ITARARE",
    "distance": 61.64,
    "lat": -23.60279083,
    "lng": -49.58737946,
    "de_lat": -24.1083,
    "de_lng": -49.3342,
    "endereco_escola": "VICINAL, SN, BAIRRO DOS VITOR, CEP: 18490000",
    "endereco_diretoria": "Rua Dr Rubens Lobo Ribeiro, 310, Cruzeiro, Itarare, SP, CEP: 18460540",
    "diretoria_original": "Itarare"
  },
  {
    "name": "ALDEIA YWY PYHAU",
    "type": "indigena",
    "city": "BARAO DE ANTONINA",
    "diretoria": "ITARARE",
    "distance": 61.61,
    "lat": -23.5999794,
    "lng": -49.57976913,
    "de_lat": -24.1083,
    "de_lng": -49.3342,
    "endereco_escola": "BAIRRO DOS VITOR, DOS VITOR, CEP: 18490000",
    "endereco_diretoria": "Rua Dr Rubens Lobo Ribeiro, 310, Cruzeiro, Itarare, SP, CEP: 18460540",
    "diretoria_original": "Itarare"
  },
  {
    "name": "AGROVILA III",
    "type": "quilombola",
    "city": "ITABERA",
    "diretoria": "ITARARE",
    "distance": 28.04,
    "lat": -24.01605034,
    "lng": -49.08214188,
    "de_lat": -24.1083,
    "de_lng": -49.3342,
    "endereco_escola": "AGROVILA III, SN, AGROVILA III, CEP: 18440000",
    "endereco_diretoria": "Rua Dr Rubens Lobo Ribeiro, 310, Cruzeiro, Itarare, SP, CEP: 18460540",
    "diretoria_original": "Itarare"
  },
  {
    "name": "ALDEIA TEKOAPORA",
    "type": "indigena",
    "city": "ITAPORANGA",
    "diretoria": "ITARARE",
    "distance": 50.17,
    "lat": -23.6990509,
    "lng": -49.54547119,
    "de_lat": -24.1083,
    "de_lng": -49.3342,
    "endereco_escola": "BAIRRO VOLTA GRANDE, SN, VOLTA GRANDE, CEP: 18480000",
    "endereco_diretoria": "Rua Dr. Rubéns Lôbo Ribeiro, 310 - Bairro Ginasio, Itararé - SP, 18460-000",
    "diretoria_original": "Itarare"
  },
  {
    "name": "COMUNIDADE NOSSA SENHORA APARECIDA",
    "type": "quilombola",
    "city": "PROMISSAO",
    "diretoria": "LINS",
    "distance": 38.24,
    "lat": -21.33078957,
    "lng": -49.79145813,
    "de_lat": -21.6741873,
    "de_lng": -49.7518932,
    "endereco_escola": "BR 153, SN, FAZENDA REUNIDAS, CEP: 16370000",
    "endereco_diretoria": "Rua Luiz Gama, 681 - Centro, Lins - SP, 16400-045",
    "diretoria_original": "Lins"
  },
  {
    "name": "ALDEIA GWAWIRA",
    "type": "indigena",
    "city": "IGUAPE",
    "diretoria": "MIRACATU",
    "distance": 65.04,
    "lat": -24.79512024,
    "lng": -47.76939011,
    "de_lat": -24.2854,
    "de_lng": -47.4588,
    "endereco_escola": "ALDEIA GWAWIRA, SN, SABAUNA, CEP: 11920000",
    "endereco_diretoria": "Avenida Doná Evarista de Castro Ferreira - Centro, Miracatu - SP, 11850-000",
    "diretoria_original": "Miracatu"
  },
  {
    "name": "ALDEIA ITAPUA",
    "type": "indigena",
    "city": "IGUAPE",
    "diretoria": "MIRACATU",
    "distance": 44.74,
    "lat": -24.68457985,
    "lng": -47.50952148,
    "de_lat": -24.2854,
    "de_lng": -47.4588,
    "endereco_escola": "MUNICIPAL, SN, PRAIA DO LESTE, CEP: 11920000",
    "endereco_diretoria": "Avenida Doná Evarista de Castro Ferreira - Centro, Miracatu - SP, 11850-000",
    "diretoria_original": "Miracatu"
  },
  {
    "name": "TAGUATO AGUIA",
    "type": "quilombola",
    "city": "IGUAPE",
    "diretoria": "MIRACATU",
    "distance": 44.87,
    "lat": -24.68473053,
    "lng": -47.51789856,
    "de_lat": -24.2854,
    "de_lng": -47.4588,
    "endereco_escola": "DO ICAPARA, SN, TOCA DO BUGIO, CEP: 11920000",
    "endereco_diretoria": "Avenida Doná Evarista de Castro Ferreira - Centro, Miracatu - SP, 11850-000",
    "diretoria_original": "Miracatu"
  },
  {
    "name": "ALDEIA CAPOEIRAO",
    "type": "indigena",
    "city": "ITARIRI",
    "diretoria": "MIRACATU",
    "distance": 34.3,
    "lat": -24.30809021,
    "lng": -47.11671829,
    "de_lat": -24.2854,
    "de_lng": -47.4588,
    "endereco_escola": "ALDEIA CAPOEIRAO, SN, KM 93, CEP: 11760000",
    "endereco_diretoria": "Avenida Doná Evarista de Castro Ferreira - Centro, Miracatu - SP, 11850-000",
    "diretoria_original": "Miracatu"
  },
  {
    "name": "ALDEIA RIO DO AZEITE",
    "type": "indigena",
    "city": "ITARIRI",
    "diretoria": "MIRACATU",
    "distance": 29.13,
    "lat": -24.33348083,
    "lng": -47.17166138,
    "de_lat": -24.2854,
    "de_lng": -47.4588,
    "endereco_escola": "RIO DO AZEITE, SN, RIO DO AZEITE, CEP: 11760000",
    "endereco_diretoria": "Avenida Doná Evarista de Castro Ferreira - Centro, Miracatu - SP, 11850-000",
    "diretoria_original": "Miracatu"
  },
  {
    "name": "ALDEIA URUITY",
    "type": "indigena",
    "city": "MIRACATU",
    "diretoria": "MIRACATU",
    "distance": 13.1,
    "lat": -24.26409912,
    "lng": -47.32629013,
    "de_lat": -24.2854,
    "de_lng": -47.4588,
    "endereco_escola": "ALDEIA URUITY, SN, BAIRRO MUSACEA, CEP: 11850000",
    "endereco_diretoria": "Avenida Doná Evarista de Castro Ferreira - Centro, Miracatu - SP, 11850-000",
    "diretoria_original": "Miracatu"
  },
  {
    "name": "ALDEIA DJAIKOATY",
    "type": "indigena",
    "city": "MIRACATU",
    "diretoria": "MIRACATU",
    "distance": 12.63,
    "lat": -24.20033073,
    "lng": -47.36891937,
    "de_lat": -24.2854,
    "de_lng": -47.4588,
    "endereco_escola": "ALDEIA DJAIKOATY, SN, BAIRRO LAMBARI, CEP: 11850000",
    "endereco_diretoria": "Avenida Doná Evarista de Castro Ferreira - Centro, Miracatu - SP, 11850-000",
    "diretoria_original": "Miracatu"
  },
  {
    "name": "KO E JU",
    "type": "quilombola",
    "city": "MIRACATU",
    "diretoria": "MIRACATU",
    "distance": 18.33,
    "lat": -24.15617943,
    "lng": -47.33876038,
    "de_lat": -24.2854,
    "de_lng": -47.4588,
    "endereco_escola": "ALDEIA INDIGENA AMBA PORA, KM 372, SANTA RITA DO RIBEIRA, CEP: 11850000",
    "endereco_diretoria": "Avenida Doná Evarista de Castro Ferreira - Centro, Miracatu - SP, 11850-000",
    "diretoria_original": "Miracatu"
  },
  {
    "name": "LIDIA SANAE OYA",
    "type": "quilombola",
    "city": "EUCLIDES DA CUNHA PAULISTA",
    "diretoria": "MIRANTE DO PARANAPANEMA",
    "distance": 65.91,
    "lat": -22.57377052,
    "lng": -52.47143936,
    "de_lat": -22.2847,
    "de_lng": -51.9088,
    "endereco_escola": "PROJETO AGROVILA ROSANELA, SN, AGROVILA ROSANELA, CEP: 19275000",
    "endereco_diretoria": "Rua Antônio Erisvaldo da Silva, 597 - Sol Nascente, Mirante do Paranapanema - SP, 19260-000",
    "diretoria_original": "Mirante do Paranapanema"
  },
  {
    "name": "MARIA ANTONIA ZANGARINI FERREIRA PROFESSORA",
    "type": "quilombola",
    "city": "EUCLIDES DA CUNHA PAULISTA",
    "diretoria": "MIRANTE DO PARANAPANEMA",
    "distance": 82.67,
    "lat": -22.47491074,
    "lng": -52.68555069,
    "de_lat": -22.2847,
    "de_lng": -51.9088,
    "endereco_escola": "GLEBA XV DE NOVEMBRO, SN, SETOR IV, CEP: 19275000",
    "endereco_diretoria": "Rua Antônio Erisvaldo da Silva, 597 - Sol Nascente, Mirante do Paranapanema - SP, 19260-000",
    "diretoria_original": "Mirante do Paranapanema"
  },
  {
    "name": "ASSENTAMENTO SANTA CLARA",
    "type": "quilombola",
    "city": "MIRANTE DO PARANAPANEMA",
    "diretoria": "MIRANTE DO PARANAPANEMA",
    "distance": 28.03,
    "lat": -22.51530647,
    "lng": -52.03659058,
    "de_lat": -22.2847,
    "de_lng": -51.9088,
    "endereco_escola": "ASSENTAMENTO CHE GUEVARA, 0, SANTA CLARA, CEP: 19260000",
    "endereco_diretoria": "Rua Antônio Erisvaldo da Silva, 597 - Sol Nascente, Mirante do Paranapanema - SP, 19260-000",
    "diretoria_original": "Mirante do Paranapanema"
  },
  {
    "name": "FAZENDA SAO BENTO",
    "type": "quilombola",
    "city": "MIRANTE DO PARANAPANEMA",
    "diretoria": "MIRANTE DO PARANAPANEMA",
    "distance": 17.99,
    "lat": -22.43954086,
    "lng": -51.9817009,
    "de_lat": -22.2847,
    "de_lng": -51.9088,
    "endereco_escola": "HAROLDINA, ENGENHEIRO VERAS, CEP: 19260000",
    "endereco_diretoria": "Rua Antônio Erisvaldo da Silva, 597 - Sol Nascente, Mirante do Paranapanema - SP, 19260-000",
    "diretoria_original": "Mirante do Paranapanema"
  },
  {
    "name": "GLEBA XV DE NOVEMBRO",
    "type": "quilombola",
    "city": "ROSANA",
    "diretoria": "MIRANTE DO PARANAPANEMA",
    "distance": 91.11,
    "lat": -22.46820068,
    "lng": -52.77148056,
    "de_lat": -22.2847,
    "de_lng": -51.9088,
    "endereco_escola": "GLEBA XV DE NOVEMBRO SII, SN, GLEBA XV DE NOVEMBRO, CEP: 19273000",
    "endereco_diretoria": "Rua Antônio Erisvaldo da Silva, 597 - Sol Nascente, Mirante do Paranapanema - SP, 19260-000",
    "diretoria_original": "Mirante do Paranapanema"
  },
  {
    "name": "RIBEIRINHOS",
    "type": "quilombola",
    "city": "ROSANA",
    "diretoria": "MIRANTE DO PARANAPANEMA",
    "distance": 83.26,
    "lat": -22.45060921,
    "lng": -52.69752884,
    "de_lat": -22.2847,
    "de_lng": -51.9088,
    "endereco_escola": "GLEBA XV DE NOVEMBRO, SN, GLEBA XV DE NOVEMBRO, CEP: 19273000",
    "endereco_diretoria": "Rua Antônio Erisvaldo da Silva, 597 - Sol Nascente, Mirante do Paranapanema - SP, 19260-000",
    "diretoria_original": "Mirante do Paranapanema"
  },
  {
    "name": "ROMILDA LAZARA PILLON DOS SANTOS PROFESSORA",
    "type": "quilombola",
    "city": "TEODORO SAMPAIO",
    "diretoria": "MIRANTE DO PARANAPANEMA",
    "distance": 41.85,
    "lat": -22.31339073,
    "lng": -52.31266022,
    "de_lat": -22.2847,
    "de_lng": -51.9088,
    "endereco_escola": "ASSENTAMENTO AGUA SUMIDA, SN, AGUA SUMIDA, CEP: 19280000",
    "endereco_diretoria": "Rua Antônio Erisvaldo da Silva, 597 - Sol Nascente, Mirante do Paranapanema - SP, 19260-000",
    "diretoria_original": "Mirante do Paranapanema"
  },
  {
    "name": "ASSENTAMENTO SANTA ZELIA",
    "type": "quilombola",
    "city": "TEODORO SAMPAIO",
    "diretoria": "MIRANTE DO PARANAPANEMA",
    "distance": 54.04,
    "lat": -22.37401009,
    "lng": -52.42435074,
    "de_lat": -22.2847,
    "de_lng": -51.9088,
    "endereco_escola": "ASSENTAMENTO SANTA ZELIA, SN, SANTA ZELIA, CEP: 19280000",
    "endereco_diretoria": "Rua Antônio Erisvaldo da Silva, 597 - Sol Nascente, Mirante do Paranapanema - SP, 19260-000",
    "diretoria_original": "Mirante do Paranapanema"
  },
  {
    "name": "ANTONIA BINATO SILVA VO NINA",
    "type": "quilombola",
    "city": "TEODORO SAMPAIO",
    "diretoria": "MIRANTE DO PARANAPANEMA",
    "distance": 63.41,
    "lat": -22.35367012,
    "lng": -52.51908112,
    "de_lat": -22.2847,
    "de_lng": -51.9088,
    "endereco_escola": "ALCIDIA, SN, DESTILARIA ALCIDIA, CEP: 19280000",
    "endereco_diretoria": "Rua Antônio Erisvaldo da Silva, 597 - Sol Nascente, Mirante do Paranapanema - SP, 19260-000",
    "diretoria_original": "Mirante do Paranapanema"
  },
  {
    "name": "FRANCISCO FERREIRA DE SOUZA PROFESSOR",
    "type": "quilombola",
    "city": "TEODORO SAMPAIO",
    "diretoria": "MIRANTE DO PARANAPANEMA",
    "distance": 53.77,
    "lat": -22.48542023,
    "lng": -52.38634109,
    "de_lat": -22.2847,
    "de_lng": -51.9088,
    "endereco_escola": "GLEBA RIBEIRAO BONITO, SN, RIBEIRAO BONITO, CEP: 19280000",
    "endereco_diretoria": "Rua Antônio Erisvaldo da Silva, 597 - Sol Nascente, Mirante do Paranapanema - SP, 19260-000",
    "diretoria_original": "Mirante do Paranapanema"
  },
  {
    "name": "DJEKUPE AMBA ARANDY",
    "type": "quilombola",
    "city": "SAO PAULO",
    "diretoria": "NORTE 1",
    "distance": 72.4,
    "lat": -23.46372986,
    "lng": -46.75337982,
    "de_lat": -23.524,
    "de_lng": -46.6883,
    "endereco_escola": "TURISTICA DO JARAGUA, 3710, VILA JARAGUA, CEP: 5161000",
    "endereco_diretoria": "Rua Faustolo, 281 - Água Branca, São Paulo - SP, 05041-000",
    "diretoria_original": "Norte 1"
  },
  {
    "name": "INDIA MARIA ROSA",
    "type": "indigena",
    "city": "BRAUNA",
    "diretoria": "PENAPOLIS",
    "distance": 29.76,
    "lat": -21.5655098,
    "lng": -50.31747818,
    "de_lat": -21.4327,
    "de_lng": -50.0766,
    "endereco_escola": "POSTO INDIGENA ICATU, SN, GUAPORANGA, CEP: 16290000",
    "endereco_diretoria": "Av. Álvaro Gomes, 181a - Parque Res. Monreal, Penápolis - SP, 16300-000",
    "diretoria_original": "Penapolis"
  },
  {
    "name": "ESCOLA ESTADUAL INDIGENA  ALDEIA MAENDUA PORA",
    "type": "indigena",
    "city": "CANANEIA",
    "diretoria": "REGISTRO",
    "distance": 66.48,
    "lat": -25.03816032,
    "lng": -48.14419937,
    "de_lat": -24.4906,
    "de_lng": -47.8439,
    "endereco_escola": "DO ARIRI, SANTA MARIA, CEP: 11990000",
    "endereco_diretoria": "Rua Vitória, 465 - Jardim America, Registro - SP, 11900-000",
    "diretoria_original": "Registro"
  },
  {
    "name": "ALDEIA SANTA CRUZ",
    "type": "indigena",
    "city": "CANANEIA",
    "diretoria": "REGISTRO",
    "distance": 70.27,
    "lat": -25.1335907,
    "lng": -47.9416008,
    "de_lat": -24.4906,
    "de_lng": -47.8439,
    "endereco_escola": "PARQUE ESTADUAL DA ILHA DO CARDOSO, SN, ILHA DO CARDOSO, CEP: 11990000",
    "endereco_diretoria": "Rua Vitória, 465 - Jardim America, Registro - SP, 11900-000",
    "diretoria_original": "Registro"
  },
  {
    "name": "ALDEIA RIO BRANCO II",
    "type": "indigena",
    "city": "CANANEIA",
    "diretoria": "REGISTRO",
    "distance": 61.75,
    "lat": -25.03256035,
    "lng": -48.04067993,
    "de_lat": -24.4906,
    "de_lng": -47.8439,
    "endereco_escola": "ALDEIA RIO BRANCO II, SN, RIO BRANCO II, CEP: 11990000",
    "endereco_diretoria": "Rua Vitória, 465 - Jardim America, Registro - SP, 11900-000",
    "diretoria_original": "Registro"
  },
  {
    "name": "ALDEIA TAKUARI TY",
    "type": "indigena",
    "city": "CANANEIA",
    "diretoria": "REGISTRO",
    "distance": 57.2,
    "lat": -25.01310921,
    "lng": -47.94667816,
    "de_lat": -24.4906,
    "de_lng": -47.8439,
    "endereco_escola": "BAIRRO ACARAU, SN, ACARAU, CEP: 11990000",
    "endereco_diretoria": "Rua Vitória, 465 - Jardim America, Registro - SP, 11900-000",
    "diretoria_original": "Registro"
  },
  {
    "name": "ALDEIA TAQUARI",
    "type": "indigena",
    "city": "ELDORADO",
    "diretoria": "REGISTRO",
    "distance": 36.66,
    "lat": -24.46722031,
    "lng": -48.19955826,
    "de_lat": -24.4906,
    "de_lng": -47.8439,
    "endereco_escola": "BAIRRO TAQUARI, SN, TAQUARI, CEP: 11960000",
    "endereco_diretoria": "Rua Vitória, 465 - Jardim America, Registro - SP, 11900-000",
    "diretoria_original": "Registro"
  },
  {
    "name": "ALDEIA PINDO TY",
    "type": "indigena",
    "city": "PARIQUERA-ACU",
    "diretoria": "REGISTRO",
    "distance": 27.19,
    "lat": -24.75048065,
    "lng": -47.86373138,
    "de_lat": -24.4906,
    "de_lng": -47.8439,
    "endereco_escola": "ALDEIA PINDO  TY, SN, LINHA JURUBATUBA, CEP: 11930000",
    "endereco_diretoria": "Rua Vitória, 465 - Jardim America, Registro - SP, 11900-000",
    "diretoria_original": "Registro"
  },
  {
    "name": "ALDEIA ARACA MIRIM",
    "type": "indigena",
    "city": "PARIQUERA-ACU",
    "diretoria": "REGISTRO",
    "distance": 23.56,
    "lat": -24.71689987,
    "lng": -47.87017822,
    "de_lat": -24.4906,
    "de_lng": -47.8439,
    "endereco_escola": "RIBEIRAO VERMELHO, SN, RIBEIRAO VERMELHO, CEP: 11930000",
    "endereco_diretoria": "Rua Vitória, 465 - Jardim America, Registro - SP, 11900-000",
    "diretoria_original": "Registro"
  },
  {
    "name": "ALDEIA ITAPU MIRIM",
    "type": "indigena",
    "city": "REGISTRO",
    "diretoria": "REGISTRO",
    "distance": 16.38,
    "lat": -24.51189041,
    "lng": -48.00183868,
    "de_lat": -24.4906,
    "de_lng": -47.8439,
    "endereco_escola": "BAIRRO VOTUPOCA, SN, BAIRRO VOTUPOCA, CEP: 11900000",
    "endereco_diretoria": "Rua Vitória, 465 - Jardim America, Registro - SP, 11900-000",
    "diretoria_original": "Registro"
  },
  {
    "name": "ALDEIA PEGUAO TY",
    "type": "indigena",
    "city": "SETE BARRAS",
    "diretoria": "REGISTRO",
    "distance": 53.34,
    "lat": -24.28780937,
    "lng": -48.30912018,
    "de_lat": -24.4906,
    "de_lng": -47.8439,
    "endereco_escola": "PARQUE ESTADUAL INTERVALES, SN, SAIBADELA, CEP: 11910000",
    "endereco_diretoria": "Rua Vitória, 465 - Jardim America, Registro - SP, 11900-000",
    "diretoria_original": "Registro"
  },
  {
    "name": "PROJETO LAGOA SAO PAULO",
    "type": "quilombola",
    "city": "CAIUA",
    "diretoria": "SANTO ANASTACIO",
    "distance": 45.34,
    "lat": -21.6774292,
    "lng": -51.95434189,
    "de_lat": -21.9758,
    "de_lng": -51.6514,
    "endereco_escola": "TEREZINHA ALMEIDA DOS SANTOS, 1005, AGROVILA 3, CEP: 19450000",
    "endereco_diretoria": "Praça Dr. Luiz R E Silva, 59, Santo Anastácio - SP, 19360-000",
    "diretoria_original": "Santo Anastacio"
  },
  {
    "name": "TXERU BA  E KUA  I",
    "type": "quilombola",
    "city": "BERTIOGA",
    "diretoria": "SANTOS",
    "distance": 58.46,
    "lat": -23.75160027,
    "lng": -45.78998947,
    "de_lat": -23.9336,
    "de_lng": -46.3255,
    "endereco_escola": "TUPI GUARANI, 1500, BORACEIA, CEP: 11626315",
    "endereco_diretoria": "Av. Senador Feijó, 54 - Centro, Santos - SP, 11015-500",
    "diretoria_original": "Santos"
  },
  {
    "name": "CLASSES VINCULADAS A EE OMAR DONATO BASSANI",
    "type": "quilombola",
    "city": "SAO BERNARDO DO CAMPO",
    "diretoria": "SAO BERNARDO DO CAMPO",
    "distance": 17.41,
    "lat": -23.85606956,
    "lng": -46.60800934,
    "de_lat": -23.7080345,
    "de_lng": -46.5506747,
    "endereco_escola": "AGUA LIMPA, SN, CURUCUTU, CEP: 9835100",
    "endereco_diretoria": "Rua Princesa Maria da Gloria, 176, Nova Petropolis, Sao Bernardo do Campo, SP, CEP: 9771130",
    "diretoria_original": "Sao Bernardo do Campo"
  },
  {
    "name": "ALDEIA RIO BRANCO",
    "type": "indigena",
    "city": "ITANHAEM",
    "diretoria": "SAO VICENTE",
    "distance": 63.08,
    "lat": -24.14668083,
    "lng": -46.80730057,
    "de_lat": -23.9668,
    "de_lng": -46.3816,
    "endereco_escola": "ALDEIA RIO BRANCO, SN, RIO BRANCO, CEP: 11740000",
    "endereco_diretoria": "Rua Joao Ramalho, 378, Centro, Sao Vicente, SP, CEP: 11310050",
    "diretoria_original": "Sao Vicente"
  },
  {
    "name": "ALDEIA TANGARA",
    "type": "indigena",
    "city": "ITANHAEM",
    "diretoria": "SAO VICENTE",
    "distance": 68.55,
    "lat": -24.16555023,
    "lng": -46.87303162,
    "de_lat": -23.9668,
    "de_lng": -46.3816,
    "endereco_escola": "DE ACESSO ANTONIO CALICO, SN, ALDEIA TANGARA, CEP: 11740000",
    "endereco_diretoria": "Rua Joao Ramalho, 378, Centro, Sao Vicente, SP, CEP: 11310050",
    "diretoria_original": "Sao Vicente"
  },
  {
    "name": "KUARAY O E A SOL NASCENTE",
    "type": "quilombola",
    "city": "MONGAGUA",
    "diretoria": "SAO VICENTE",
    "distance": 54.22,
    "lat": -24.11581039,
    "lng": -46.68315125,
    "de_lat": -23.9668,
    "de_lng": -46.3816,
    "endereco_escola": "ALDEIA ITAOCA, SN, ALDEIA ITAOCA, CEP: 11730000",
    "endereco_diretoria": "Rua Joao Ramalho, 378, Centro, Sao Vicente, SP, CEP: 11310050",
    "diretoria_original": "Sao Vicente"
  },
  {
    "name": "ALDEIA AGUAPEU",
    "type": "indigena",
    "city": "MONGAGUA",
    "diretoria": "SAO VICENTE",
    "distance": 50.0,
    "lat": -24.08580971,
    "lng": -46.65306091,
    "de_lat": -23.9668,
    "de_lng": -46.3816,
    "endereco_escola": "ALDEIA AGUAPEU, SN, AGUAPEU, CEP: 11730000",
    "endereco_diretoria": "Rua Joao Ramalho, 378, Centro, Sao Vicente, SP, CEP: 11310050",
    "diretoria_original": "Sao Vicente"
  },
  {
    "name": "ALDEIA NHAMANDU MIRIM",
    "type": "indigena",
    "city": "PERUIBE",
    "diretoria": "SAO VICENTE",
    "distance": 87.64,
    "lat": -24.28722954,
    "lng": -47.00923157,
    "de_lat": -23.9668,
    "de_lng": -46.3816,
    "endereco_escola": "AREA RURAL, KM 339, AREA RURAL DE PERUIBE, CEP: 11789899",
    "endereco_diretoria": "Rua Joao Ramalho, 378, Centro, Sao Vicente, SP, CEP: 11310050",
    "diretoria_original": "Sao Vicente"
  },
  {
    "name": "ALDEIA BANANAL",
    "type": "indigena",
    "city": "PERUIBE",
    "diretoria": "SAO VICENTE",
    "distance": 83.75,
    "lat": -24.26161003,
    "lng": -46.98276901,
    "de_lat": -23.9668,
    "de_lng": -46.3816,
    "endereco_escola": "ARMANDO CUNHA, SN, BAMBU, CEP: 11776314",
    "endereco_diretoria": "Rua Joao Ramalho, 378, Centro, Sao Vicente, SP, CEP: 11310050",
    "diretoria_original": "Sao Vicente"
  },
  {
    "name": "ALDEIA PIACAGUERA",
    "type": "indigena",
    "city": "PERUIBE",
    "diretoria": "SAO VICENTE",
    "distance": 77.83,
    "lat": -24.24653053,
    "lng": -46.90629959,
    "de_lat": -23.9668,
    "de_lng": -46.3816,
    "endereco_escola": "ALDEIA PIACAGUERA, SN, SANTA CRUZ, CEP: 11750000",
    "endereco_diretoria": "Rua Joao Ramalho, 378, Centro, Sao Vicente, SP, CEP: 11310050",
    "diretoria_original": "Sao Vicente"
  },
  {
    "name": "ALDEIA TEKOA MIRIM",
    "type": "indigena",
    "city": "PRAIA GRANDE",
    "diretoria": "SAO VICENTE",
    "distance": 37.9,
    "lat": -24.00324059,
    "lng": -46.52542877,
    "de_lat": -23.9668,
    "de_lng": -46.3816,
    "endereco_escola": "SERRA DA LEOA, SN, ALDEIA TEKOA MIRIM, CEP: 11717900",
    "endereco_diretoria": "Rua Joao Ramalho, 378, Centro, Sao Vicente, SP, CEP: 11310050",
    "diretoria_original": "Sao Vicente"
  },
  {
    "name": "ALDEIA DE PARANAPUA",
    "type": "indigena",
    "city": "SAO VICENTE",
    "diretoria": "SAO VICENTE",
    "distance": 36.75,
    "lat": -23.98343086,
    "lng": -46.3825798,
    "de_lat": -23.9668,
    "de_lng": -46.3816,
    "endereco_escola": "PRAIA DE PARANAPUA, SN, ALDEIA PARANAPUA, CEP: 11325010",
    "endereco_diretoria": "Rua Joao Ramalho, 378, Centro, Sao Vicente, SP, CEP: 11310050",
    "diretoria_original": "Sao Vicente"
  },
  {
    "name": "KRUKUTU",
    "type": "indigena",
    "city": "SAO PAULO",
    "diretoria": "SUL 3",
    "distance": 33.54,
    "lat": -23.86470985,
    "lng": -46.62084961,
    "de_lat": -23.7144,
    "de_lng": -46.7097,
    "endereco_escola": "GRANJA SAIKI, 1693, BARRAGEM, CEP: 4895000",
    "endereco_diretoria": "Avenida Alcindo Ferreira, 4 - Parque do Castelo, São Paulo - SP, 04803-170",
    "diretoria_original": "Sul 3"
  },
  {
    "name": "INDIGENA GUARANI GWYRA PEPO",
    "type": "indigena",
    "city": "SAO PAULO",
    "diretoria": "SUL 3",
    "distance": 36.24,
    "lat": -23.86746979,
    "lng": -46.65039063,
    "de_lat": -23.7144,
    "de_lng": -46.7097,
    "endereco_escola": "JOAO LANG, 153, CIPO DO MEIO, CEP: 4895070",
    "endereco_diretoria": "Avenida Alcindo Ferreira, 4 - Parque do Castelo, São Paulo - SP, 04803-170",
    "diretoria_original": "Sul 3"
  },
  {
    "name": "INDIA VANUIRE",
    "type": "indigena",
    "city": "ARCO-IRIS",
    "diretoria": "TUPA",
    "distance": 20.4,
    "lat": -21.79439926,
    "lng": -50.38648987,
    "de_lat": -21.9349129,
    "de_lng": -50.5141255,
    "endereco_escola": "POSTO INDIGENA B, SN, PONTE ALTA, CEP: 17630000",
    "endereco_diretoria": "Praca Praca da Bandeira, 900, Centro, Tupa, SP, CEP: 17600380",
    "diretoria_original": "Tupa"
  }
]